City_ID,City,Lat,Lng,Max Temp,Humidity,Cloudiness,Wind Speed,Country,Date,Current Description,Rain inches (last 3 hours),Snow inches (last 3 hours)
0,Hay River,60.82,-115.8,28.4,63,40,5.82,CA,2020-04-20 04:17:04,scattered clouds,0,0
1,Garden City,42.33,-83.33,37.99,55,1,5.82,US,2020-04-20 04:21:44,clear sky,0,0
2,Half Moon Bay,37.46,-122.43,57.0,71,90,4.7,US,2020-04-20 04:19:45,overcast clouds,0,0
3,Smithers,54.78,-127.17,60.8,52,5,8.05,CA,2020-04-20 04:21:44,clear sky,0,0
4,Rikitea,-23.12,-134.97,76.84,71,93,6.76,PF,2020-04-20 04:15:46,overcast clouds,0,0
5,Aklavik,68.22,-135.01,14.0,72,90,9.17,CA,2020-04-20 04:16:28,overcast clouds,0,0
6,Mar Del Plata,-38.0,-57.56,62.01,87,98,2.24,AR,2020-04-20 04:12:12,overcast clouds,0,0
7,Atuona,-9.8,-139.03,82.72,75,45,12.82,PF,2020-04-20 04:16:14,scattered clouds,0,0
8,Acarau,-2.89,-40.12,76.5,88,33,1.7,BR,2020-04-20 04:21:46,scattered clouds,0,0
9,Neyshabur,36.21,58.8,60.1,31,0,1.41,IR,2020-04-20 04:21:46,clear sky,0,0
10,Nikolskoye,59.7,30.79,37.4,94,40,4.47,RU,2020-04-20 04:15:45,scattered clouds,0,0
11,Cochrane,51.18,-114.47,42.01,69,1,5.82,CA,2020-04-20 04:21:46,clear sky,0,0
12,Colmenar Viejo,40.66,-3.77,54.0,93,2,3.18,ES,2020-04-20 04:21:46,clear sky,0,0
13,Mogadishu,2.04,45.34,82.51,74,99,11.43,SO,2020-04-20 04:16:59,light rain,2.15,0
14,Ilulissat,69.22,-51.1,24.8,58,100,29.97,GL,2020-04-20 04:15:56,light shower snow,0,0
15,Dikson,73.51,80.55,33.6,94,86,17.05,RU,2020-04-20 04:16:47,overcast clouds,0,0
16,Touros,-5.2,-35.46,77.0,94,40,3.36,BR,2020-04-20 04:16:51,scattered clouds,0,0
17,Cockburn Town,21.46,-71.14,79.21,84,38,17.52,TC,2020-04-20 04:16:41,scattered clouds,0,0
18,Ribeira Grande,38.52,-28.7,56.26,58,2,7.27,PT,2020-04-20 04:16:35,clear sky,0,0
19,Guaruja,-23.99,-46.26,71.01,82,75,6.93,BR,2020-04-20 04:19:47,broken clouds,0,0
20,Provideniya,64.38,-173.3,22.59,95,100,13.62,RU,2020-04-20 04:16:33,light snow,0,0.36
21,Nikolayevsk-Na-Amure,53.14,140.73,32.85,94,100,6.51,RU,2020-04-20 04:21:48,light snow,0,0.67
22,Chapais,49.78,-74.85,6.8,71,1,8.05,CA,2020-04-20 04:16:39,clear sky,0,0
23,Vila Franca Do Campo,37.72,-25.43,53.6,66,20,9.17,PT,2020-04-20 04:17:14,few clouds,0,0
24,Superior,46.72,-92.1,37.99,43,1,6.93,US,2020-04-20 04:18:59,clear sky,0,0
25,Tholey,49.48,7.04,46.0,60,0,5.99,DE,2020-04-20 04:21:49,clear sky,0,0
26,Jamestown,42.1,-79.24,39.0,74,90,10.29,US,2020-04-20 04:14:12,overcast clouds,0,0
27,Kapaa,22.08,-159.32,78.8,65,20,10.29,US,2020-04-20 04:12:44,few clouds,0,0
28,Khorixas,-20.37,14.97,72.54,44,79,2.75,NA,2020-04-20 04:21:50,light rain,0.24,0
29,Barrow,71.29,-156.79,10.4,85,90,5.82,US,2020-04-20 04:15:54,overcast clouds,0,0
30,Nome,64.5,-165.41,36.0,100,90,3.65,US,2020-04-20 04:21:50,overcast clouds,0,0
31,Arraial Do Cabo,-22.97,-42.03,72.48,73,75,2.57,BR,2020-04-20 04:16:19,broken clouds,0,0
32,Katsuura,35.13,140.3,60.26,85,100,17.4,JP,2020-04-20 04:16:10,light rain,2.93,0
33,Yellowknife,62.46,-114.35,14.0,66,75,5.82,CA,2020-04-20 04:16:19,broken clouds,0,0
34,Torbay,47.67,-52.73,36.0,100,90,24.16,CA,2020-04-20 04:16:22,light intensity drizzle,0,0
35,Saskylakh,71.92,114.08,22.86,95,17,2.73,RU,2020-04-20 04:16:09,few clouds,0,0
36,Cape Town,-33.93,18.42,63.0,77,75,14.99,ZA,2020-04-20 04:14:50,broken clouds,0,0
37,Chibuto,-24.69,33.53,65.37,93,13,5.41,MZ,2020-04-20 04:21:52,few clouds,0,0
38,Ndjole,-0.18,10.76,73.26,92,86,1.07,GA,2020-04-20 04:21:52,overcast clouds,0,0
39,Russell,32.35,-85.2,62.6,93,90,5.17,US,2020-04-20 04:15:22,thunderstorm with rain,0,0
40,Pevek,69.7,170.31,12.63,94,100,7.56,RU,2020-04-20 04:16:06,light snow,0,0.2
41,Albany,42.6,-73.97,50.0,73,94,1.01,US,2020-04-20 04:16:16,light rain,1.98,0
42,Ushuaia,-54.8,-68.3,39.2,86,75,24.16,AR,2020-04-20 04:16:07,light rain,0,0
43,Faribault,44.3,-93.27,37.99,59,16,4.7,US,2020-04-20 04:21:53,few clouds,0,0
44,Qaanaaq,77.48,-69.36,9.43,82,39,11.48,GL,2020-04-20 04:16:54,scattered clouds,0,0
45,Nyimba,-14.56,30.81,64.15,63,40,5.75,ZM,2020-04-20 04:21:54,scattered clouds,0,0
46,Shelburne,44.08,-80.2,28.4,68,1,4.7,CA,2020-04-20 04:21:54,clear sky,0,0
47,Dunedin,-45.87,170.5,60.01,44,82,11.59,NZ,2020-04-20 04:17:14,broken clouds,0,0
48,Klaksvik,62.23,-6.59,41.0,93,1,12.75,FO,2020-04-20 04:16:48,clear sky,0,0
49,Aginskoye,51.1,114.53,27.27,57,98,19.89,RU,2020-04-20 04:21:54,overcast clouds,0,0
50,Bauchi,10.5,10.0,75.38,19,67,5.23,NG,2020-04-20 04:21:55,broken clouds,0,0
51,Punta Arenas,-53.15,-70.92,42.8,75,40,19.46,CL,2020-04-20 04:12:14,scattered clouds,0,0
52,Mount Gambier,-37.83,140.77,64.4,55,75,17.22,AU,2020-04-20 04:21:43,broken clouds,0,0
53,Santa Cruz,-17.8,-63.17,68.0,82,0,4.7,BO,2020-04-20 04:21:56,clear sky,0,0
54,Tuktoyaktuk,69.45,-133.04,8.6,84,90,4.7,CA,2020-04-20 04:16:09,light snow,0,0
55,Khatanga,71.97,102.5,31.03,95,61,5.66,RU,2020-04-20 04:16:37,broken clouds,0,0
56,Saint-Philippe,-21.36,55.77,77.0,73,40,16.11,RE,2020-04-20 04:16:13,scattered clouds,0,0
57,Poum,-20.23,164.02,80.6,76,100,8.79,NC,2020-04-20 04:21:57,light rain,0.89,0
58,Balabac,7.99,117.06,87.67,64,98,9.57,PH,2020-04-20 04:21:57,light rain,0.64,0
59,Mayo,38.89,-76.51,55.0,87,1,3.36,US,2020-04-20 04:16:33,clear sky,0,0
60,Puerto Ayora,-0.74,-90.35,80.01,87,50,5.99,EC,2020-04-20 04:16:37,scattered clouds,0,0
61,Dudinka,69.41,86.18,37.4,69,100,29.08,RU,2020-04-20 04:21:58,overcast clouds,0,0
62,Kavieng,-2.57,150.8,84.33,73,30,5.17,PG,2020-04-20 04:16:54,light rain,0.43,0
63,Broome,42.25,-75.83,45.0,80,90,14.99,US,2020-04-20 04:21:58,light rain,0,0
64,Saint George,37.1,-113.58,64.0,42,20,17.22,US,2020-04-20 04:13:05,few clouds,0,0
65,Vaini,-21.2,-175.2,82.4,74,40,10.29,TO,2020-04-20 04:16:00,scattered clouds,0,0
66,Bluff,-46.6,168.33,55.99,74,70,5.01,NZ,2020-04-20 04:16:17,light rain,0.23,0
67,Porto Novo,6.5,2.6,80.87,78,100,5.35,BJ,2020-04-20 04:21:59,overcast clouds,0,0
68,Hobart,-42.88,147.33,62.01,67,75,23.04,AU,2020-04-20 04:12:42,light rain,0,0
69,Felanitx,39.47,3.15,62.6,93,90,1.12,ES,2020-04-20 04:22:00,overcast clouds,0,0
70,Hithadhoo,-0.6,73.08,84.88,76,100,11.5,MV,2020-04-20 04:16:28,overcast clouds,0,0
71,Bambous Virieux,-20.34,57.76,75.2,88,40,11.41,MU,2020-04-20 04:16:15,shower rain,0,0
72,Hilo,19.73,-155.09,78.8,57,20,9.17,US,2020-04-20 04:16:32,few clouds,0,0
73,Severo-Kurilsk,50.68,156.12,31.71,92,52,9.17,RU,2020-04-20 04:17:57,broken clouds,0,0
74,Vardo,70.37,31.11,37.4,86,40,17.22,NO,2020-04-20 04:17:32,scattered clouds,0,0
75,Mashhad,36.3,59.61,64.4,48,0,2.04,IR,2020-04-20 04:21:10,clear sky,0,0
76,Kindersley,51.47,-109.17,44.01,62,90,13.87,CA,2020-04-20 04:22:01,overcast clouds,0,0
77,Norman Wells,65.28,-126.83,28.4,86,90,2.24,CA,2020-04-20 04:17:00,light snow,0,0
78,Moose Factory,51.26,-80.61,6.8,77,1,6.93,CA,2020-04-20 04:17:22,clear sky,0,0
79,Lagoa,39.05,-27.98,56.79,60,0,13.04,PT,2020-04-20 04:16:33,clear sky,0,0
80,Chokurdakh,70.63,147.92,9.68,95,92,11.48,RU,2020-04-20 04:15:46,overcast clouds,0,0
81,Plettenberg Bay,-34.05,23.37,64.63,66,0,2.33,ZA,2020-04-20 04:17:35,clear sky,0,0
82,Tiksi,71.69,128.87,18.86,92,100,6.04,RU,2020-04-20 04:16:45,overcast clouds,0,0
83,Sorland,67.67,12.69,42.8,93,75,12.75,NO,2020-04-20 04:22:03,broken clouds,0,0
84,Lagos,6.58,3.75,78.8,94,20,2.24,NG,2020-04-20 04:20:58,few clouds,0,0
85,Bria,6.54,21.99,71.53,73,100,4.14,CF,2020-04-20 04:22:03,overcast clouds,0,0
86,Mataura,-46.19,168.86,55.99,74,90,5.01,NZ,2020-04-20 04:15:49,overcast clouds,0,0
87,Bredasdorp,-34.53,20.04,57.2,87,0,2.24,ZA,2020-04-20 04:16:34,clear sky,0,0
88,Coahuayana,18.73,-103.68,73.35,82,0,3.44,MX,2020-04-20 04:17:21,clear sky,0,0
89,Ugoofaaru,5.67,73.0,86.09,71,45,8.75,MV,2020-04-20 04:22:04,scattered clouds,0,0
90,East London,-33.02,27.91,84.2,45,0,11.41,ZA,2020-04-20 04:15:58,clear sky,0,0
91,Coihaique,-45.58,-72.07,37.4,93,40,2.24,CL,2020-04-20 04:22:04,scattered clouds,0,0
92,Zaranj,30.97,61.88,69.8,64,4,11.41,AF,2020-04-20 04:22:05,clear sky,0,0
93,Baruun-Urt,46.68,113.28,26.13,64,92,15.68,MN,2020-04-20 04:22:05,light snow,0,0.39
94,Mackay,-21.15,149.2,86.0,74,68,11.41,AU,2020-04-20 04:22:05,broken clouds,0,0
95,Port Alfred,-33.59,26.89,70.0,64,0,5.61,ZA,2020-04-20 04:16:18,clear sky,0,0
96,Thompson,55.74,-97.86,15.8,92,75,4.7,CA,2020-04-20 04:16:19,light snow,0,0
97,Georgetown,5.41,100.34,91.4,70,20,4.7,MY,2020-04-20 04:13:43,few clouds,0,0
98,Lexington,37.99,-84.48,51.01,81,90,5.82,US,2020-04-20 04:22:06,overcast clouds,0,0
99,Faanui,-16.48,-151.75,82.24,77,81,19.19,PF,2020-04-20 04:16:01,light rain,1.2,0
100,Japura,-0.32,102.35,88.66,58,2,3.36,ID,2020-04-20 04:22:07,light rain,0.11,0
101,Rostock,54.09,12.14,39.0,74,20,4.7,DE,2020-04-20 04:22:07,few clouds,0,0
102,Srednekolymsk,67.45,153.68,16.23,94,100,11.86,RU,2020-04-20 04:22:07,light snow,0,0.18
103,Busselton,-33.65,115.33,66.99,70,95,10.0,AU,2020-04-20 04:16:21,light rain,0.13,0
104,Harper,4.38,-7.72,80.53,84,100,4.99,LR,2020-04-20 04:22:07,light rain,0.58,0
105,Bethel,41.37,-73.41,53.6,40,1,6.93,US,2020-04-20 04:16:27,clear sky,0,0
106,Cidreira,-30.18,-50.21,66.7,86,0,15.21,BR,2020-04-20 04:17:05,clear sky,0,0
107,Mana,5.66,-53.78,77.13,90,100,10.45,GF,2020-04-20 04:22:08,moderate rain,4.53,0
108,Harer,9.31,42.13,61.45,53,98,6.55,ET,2020-04-20 04:22:08,overcast clouds,0,0
109,Wageningen,51.97,5.67,46.0,56,0,12.75,NL,2020-04-20 04:22:09,clear sky,0,0
110,Victoria,22.29,114.16,86.0,76,22,11.01,HK,2020-04-20 04:15:54,few clouds,0,0
111,Voi,-3.39,38.56,71.17,73,95,5.19,KE,2020-04-20 04:22:10,overcast clouds,0,0
112,Ahipara,-35.17,173.17,64.58,90,100,5.86,NZ,2020-04-20 04:17:20,moderate rain,4.35,0
113,Bucerias,20.75,-105.33,73.4,83,20,3.36,MX,2020-04-20 04:22:10,few clouds,0,0
114,Upernavik,72.79,-56.15,23.4,88,66,47.96,GL,2020-04-20 04:16:05,light snow,0,0.27
115,Isangel,-19.55,169.27,84.2,79,90,9.17,VU,2020-04-20 04:16:44,overcast clouds,0,0
116,Kununurra,-15.77,128.73,98.6,29,10,8.05,AU,2020-04-20 04:22:11,clear sky,0,0
117,Chuy,-33.7,-53.46,64.47,85,0,9.71,UY,2020-04-20 04:15:52,clear sky,0,0
118,Ketou,7.36,2.6,77.72,82,80,3.42,BJ,2020-04-20 04:22:11,broken clouds,0,0
119,Tezu,27.92,96.17,70.41,64,96,2.06,IN,2020-04-20 04:16:49,light rain,1.11,0
120,Szydlowiec,51.23,20.86,32.61,86,0,4.32,PL,2020-04-20 04:22:12,clear sky,0,0
121,Pisco,-13.7,-76.22,68.0,82,0,6.93,PE,2020-04-20 04:16:30,clear sky,0,0
122,Hobyo,5.35,48.53,84.11,74,100,7.49,SO,2020-04-20 04:22:12,overcast clouds,0,0
123,Port Elizabeth,-33.92,25.57,69.8,49,0,12.75,ZA,2020-04-20 04:16:12,clear sky,0,0
124,Lavrentiya,65.58,-171.0,19.63,92,100,7.83,RU,2020-04-20 04:17:56,overcast clouds,0,0
125,Acapulco,16.86,-99.89,77.0,94,5,2.53,MX,2020-04-20 04:21:26,clear sky,0,0
126,Guerrero Negro,27.98,-114.06,60.48,78,99,19.82,MX,2020-04-20 04:15:58,overcast clouds,0,0
127,Cayenne,4.93,-52.33,77.0,100,100,10.09,GF,2020-04-20 04:22:13,moderate rain,5.95,0
128,Broken Hill,-31.95,141.43,73.4,27,100,9.17,AU,2020-04-20 04:22:14,overcast clouds,0,0
129,Kavaratti,10.57,72.64,87.8,66,20,4.7,IN,2020-04-20 04:15:55,few clouds,0,0
130,Cabinda,-5.55,12.2,79.25,85,79,3.98,AO,2020-04-20 04:22:14,broken clouds,0,0
131,Hamilton,39.18,-84.53,48.0,93,1,3.83,US,2020-04-20 04:17:48,clear sky,0,0
132,Tacuarembo,-31.73,-55.98,60.08,67,0,4.88,UY,2020-04-20 04:19:01,clear sky,0,0
133,Sinjhoro,26.03,68.81,82.4,54,40,4.7,PK,2020-04-20 04:22:15,haze,0,0
134,Salalah,17.02,54.09,82.4,69,40,3.36,OM,2020-04-20 04:17:03,scattered clouds,0,0
135,Bonavista,48.65,-53.11,32.25,98,100,30.91,CA,2020-04-20 04:16:22,snow,0,7.89
136,Castro,-24.79,-50.01,56.52,70,49,5.79,BR,2020-04-20 04:16:27,scattered clouds,0,0
137,Sitka,57.05,-135.33,48.2,87,90,3.36,US,2020-04-20 04:12:14,overcast clouds,0,0
138,Sao Filipe,14.9,-24.5,71.49,72,1,16.69,CV,2020-04-20 04:17:15,clear sky,0,0
139,Alice Springs,-23.7,133.88,98.6,14,75,9.17,AU,2020-04-20 04:22:16,broken clouds,0,0
140,Avarua,-21.21,-159.78,80.6,74,3,11.41,CK,2020-04-20 04:16:20,clear sky,0,0
141,Hof,50.32,11.92,37.99,49,0,1.01,DE,2020-04-20 04:22:16,clear sky,0,0
142,Pundaguitan,6.37,126.17,83.52,76,55,9.57,PH,2020-04-20 04:22:16,broken clouds,0,0
143,Manono,-7.3,27.42,68.5,82,93,1.74,CD,2020-04-20 04:22:17,light rain,1.87,0
144,Winnemucca,40.97,-117.74,42.8,56,1,3.36,US,2020-04-20 04:22:17,clear sky,0,0
145,Kodiak,57.79,-152.41,44.6,81,90,13.87,US,2020-04-20 04:16:00,overcast clouds,0,0
146,Canatlan,24.52,-104.78,66.99,29,32,11.01,MX,2020-04-20 04:22:17,scattered clouds,0,0
147,Xianyang,34.34,108.7,64.0,31,100,4.47,CN,2020-04-20 04:22:18,overcast clouds,0,0
148,Moree,-29.47,149.85,73.4,27,91,10.29,AU,2020-04-20 04:22:18,overcast clouds,0,0
149,Quchan,37.11,58.51,55.69,34,0,2.39,IR,2020-04-20 04:22:18,clear sky,0,0
150,Merauke,-8.47,140.33,89.24,63,22,7.27,ID,2020-04-20 04:17:24,light rain,0.16,0
151,Aljezur,37.32,-8.8,57.99,81,98,11.05,PT,2020-04-20 04:22:19,light rain,0.14,0
152,Nanortalik,60.14,-45.24,27.81,86,17,6.93,GL,2020-04-20 04:18:06,few clouds,0,0
153,Namibe,-15.2,12.15,74.39,73,74,1.28,AO,2020-04-20 04:16:37,light rain,1.97,0
154,Marsala,37.8,12.44,68.0,56,40,5.82,IT,2020-04-20 04:22:20,scattered clouds,0,0
155,Grindavik,63.84,-22.43,46.4,100,90,26.4,IS,2020-04-20 04:17:12,light rain,0,0
156,Imbituba,-28.24,-48.67,66.2,88,2,8.05,BR,2020-04-20 04:22:20,clear sky,0,0
157,Ajdabiya,30.76,20.23,68.56,35,100,10.33,LY,2020-04-20 04:22:20,overcast clouds,0,0
158,Ladario,-19.0,-57.6,73.62,81,1,1.05,BR,2020-04-20 04:22:21,clear sky,0,0
159,Malakal,9.53,31.66,79.47,38,98,3.06,SS,2020-04-20 04:22:21,overcast clouds,0,0
160,Vidor,30.13,-94.02,73.4,100,90,3.36,US,2020-04-20 04:22:21,mist,0,0
161,Yumen,40.28,97.2,51.31,19,75,16.33,CN,2020-04-20 04:18:08,broken clouds,0,0
162,Gilgit,35.92,74.31,52.25,25,100,3.06,PK,2020-04-20 04:16:31,overcast clouds,0,0
163,Pacific Grove,36.62,-121.92,57.2,71,90,3.36,US,2020-04-20 04:17:33,overcast clouds,0,0
164,Sire,12.93,5.2,86.07,20,7,9.24,NG,2020-04-20 04:22:22,clear sky,0,0
165,Hermanus,-34.42,19.23,60.01,93,9,1.99,ZA,2020-04-20 04:16:36,clear sky,0,0
166,Padang,-0.95,100.35,88.18,60,3,1.83,ID,2020-04-20 04:17:48,light rain,0.22,0
167,Cascais,38.7,-9.42,57.99,81,100,12.73,PT,2020-04-20 04:22:23,overcast clouds,0,0
168,Leningradskiy,69.38,178.42,14.41,93,95,10.16,RU,2020-04-20 04:18:00,overcast clouds,0,0
169,Ponta Do Sol,32.67,-17.1,62.01,75,9,10.0,PT,2020-04-20 04:16:36,clear sky,0,0
170,Skegness,53.14,0.34,46.0,92,0,4.0,GB,2020-04-20 04:22:23,clear sky,0,0
171,Garissa,-0.45,39.64,76.48,74,100,10.78,KE,2020-04-20 04:22:23,light rain,0.13,0
172,Barra Do Bugres,-15.07,-57.18,72.95,86,7,0.29,BR,2020-04-20 04:22:24,clear sky,0,0
173,Talnakh,69.49,88.4,37.4,69,99,31.32,RU,2020-04-20 04:16:32,overcast clouds,0,0
174,Tuatapere,-46.13,167.68,55.99,74,16,5.01,NZ,2020-04-20 04:17:31,few clouds,0,0
175,Mumbwa,-14.98,27.06,58.55,65,0,2.86,ZM,2020-04-20 04:19:04,clear sky,0,0
176,Aasiaat,68.71,-52.87,25.75,91,100,19.48,GL,2020-04-20 04:17:35,light snow,0,0.59
177,Lebu,-37.62,-73.65,55.58,72,100,9.01,CL,2020-04-20 04:15:55,overcast clouds,0,0
178,Kokhma,56.93,41.09,34.23,84,15,3.15,RU,2020-04-20 04:22:25,few clouds,0,0
179,Natal,-5.79,-35.21,78.8,88,20,2.24,BR,2020-04-20 04:22:25,few clouds,0,0
180,Pouembout,-21.13,164.9,78.96,83,100,7.67,NC,2020-04-20 04:22:25,moderate rain,4.49,0
181,Grand Gaube,-20.01,57.66,75.2,88,40,11.41,MU,2020-04-20 04:17:41,shower rain,0,0
182,Pelym,61.01,62.0,38.75,73,0,4.9,RU,2020-04-20 04:22:26,clear sky,0,0
183,Bida,9.08,6.02,80.53,69,100,4.83,NG,2020-04-20 04:22:26,overcast clouds,0,0
184,Kitimat,54.05,-128.65,51.8,62,40,16.11,CA,2020-04-20 04:20:31,scattered clouds,0,0
185,Gat,31.61,34.76,62.01,75,0,5.39,IL,2020-04-20 04:16:07,clear sky,0,0
186,Tura,25.52,90.22,79.81,63,97,6.87,IN,2020-04-20 04:15:51,light rain,0.11,0
187,Esperance,-33.87,121.9,66.2,59,75,17.22,AU,2020-04-20 04:17:30,broken clouds,0,0
188,Morros,-9.45,-46.3,72.45,80,87,4.61,BR,2020-04-20 04:22:27,light rain,1.09,0
189,Kyra,49.58,111.98,26.44,55,73,16.53,RU,2020-04-20 04:22:27,broken clouds,0,0
190,Vestmannaeyjar,63.44,-20.27,46.22,94,100,27.13,IS,2020-04-20 04:22:28,light rain,0.17,0
191,Haines Junction,60.75,-137.51,43.29,58,74,8.57,CA,2020-04-20 04:16:51,broken clouds,0,0
192,Longyearbyen,78.22,15.64,24.8,85,75,28.86,SJ,2020-04-20 04:17:00,snow,0,0
193,Kabo,7.7,18.63,78.08,62,58,7.54,CF,2020-04-20 04:22:28,broken clouds,0,0
194,Petropavlovsk-Kamchatskiy,53.05,158.65,39.2,29,19,17.9,RU,2020-04-20 04:22:28,few clouds,0,0
195,Mahebourg,-20.41,57.7,75.2,88,40,11.41,MU,2020-04-20 04:16:57,shower rain,0,0
196,San Carlos De Bariloche,-41.15,-71.31,46.4,81,75,14.99,AR,2020-04-20 04:22:26,broken clouds,0,0
197,Kaka,37.35,59.61,69.28,33,0,3.29,TM,2020-04-20 04:22:29,clear sky,0,0
198,Sur,22.57,59.53,86.29,41,0,6.08,OM,2020-04-20 04:22:29,clear sky,0,0
199,Necochea,-38.55,-58.74,58.95,77,95,4.83,AR,2020-04-20 04:17:37,overcast clouds,0,0
200,Lorengau,-2.02,147.27,84.49,74,33,6.35,PG,2020-04-20 04:16:24,light rain,0.66,0
201,Araouane,18.9,-3.53,79.32,18,0,15.21,ML,2020-04-20 04:16:18,clear sky,0,0
202,Angra Dos Reis,-23.01,-44.32,69.33,79,66,4.41,BR,2020-04-20 04:20:16,light rain,0.13,0
203,Camacha,33.08,-16.33,64.4,77,40,11.41,PT,2020-04-20 04:17:24,scattered clouds,0,0
204,Pilar,-9.6,-35.96,75.52,88,45,5.08,BR,2020-04-20 04:22:30,light rain,1.97,0
205,Pula,44.87,13.85,60.8,63,100,16.11,HR,2020-04-20 04:22:31,overcast clouds,0,0
206,Nelson Bay,-32.72,152.15,73.4,33,100,18.34,AU,2020-04-20 04:17:17,overcast clouds,0,0
207,Lujan,-34.57,-59.1,62.01,79,0,5.39,AR,2020-04-20 04:22:31,clear sky,0,0
208,Ostrovnoy,68.05,39.51,24.48,97,46,6.55,RU,2020-04-20 04:16:09,scattered clouds,0,0
209,Dingle,11.0,122.67,89.37,60,98,13.8,PH,2020-04-20 04:17:45,light rain,0.31,0
210,Cabo San Lucas,22.89,-109.91,70.0,68,26,9.98,MX,2020-04-20 04:14:36,scattered clouds,0,0
211,Vanavara,60.34,102.28,34.86,70,0,1.52,RU,2020-04-20 04:22:32,clear sky,0,0
212,Airai,-8.93,125.41,72.95,43,32,3.47,TL,2020-04-20 04:16:35,scattered clouds,0,0
213,Chipinge,-20.19,32.62,53.35,74,16,1.95,ZW,2020-04-20 04:22:32,few clouds,0,0
214,Buala,-8.14,159.59,84.38,75,34,7.43,SB,2020-04-20 04:18:14,light rain,2.04,0
215,San Jose,37.34,-121.89,57.99,62,40,11.41,US,2020-04-20 04:16:43,scattered clouds,0,0
216,Ulcinj,41.93,19.22,55.4,82,75,2.24,ME,2020-04-20 04:22:33,broken clouds,0,0
217,New Norfolk,-42.78,147.06,62.01,72,98,8.99,AU,2020-04-20 04:15:57,light rain,1.35,0
218,Clyde River,70.47,-68.59,-11.2,69,1,4.7,CA,2020-04-20 04:18:12,clear sky,0,0
219,Kholm,59.27,32.85,30.87,98,21,3.22,RU,2020-04-20 04:22:34,few clouds,0,0
220,Ucluelet,48.93,-125.55,51.01,86,15,2.73,CA,2020-04-20 04:12:51,few clouds,0,0
221,Wiarton,44.74,-81.13,32.0,82,5,5.82,CA,2020-04-20 04:22:34,clear sky,0,0
222,Sao Joao Da Barra,-21.64,-41.05,69.08,84,99,7.09,BR,2020-04-20 04:22:35,overcast clouds,0,0
223,Avera,33.19,-82.53,57.2,95,90,6.93,US,2020-04-20 04:16:05,moderate rain,0,0
224,Quatre Cocos,-20.21,57.76,75.2,88,40,11.41,MU,2020-04-20 04:16:55,shower rain,0,0
225,Hvide Sande,56.0,8.13,44.17,61,0,4.94,DK,2020-04-20 04:17:50,clear sky,0,0
226,Adre,13.47,22.2,70.57,16,95,8.81,TD,2020-04-20 04:22:35,overcast clouds,0,0
227,Sobolevo,54.43,31.9,30.4,95,5,8.72,RU,2020-04-20 04:17:38,clear sky,0,0
228,Kalanguy,51.02,116.52,24.44,60,100,18.7,RU,2020-04-20 04:22:36,overcast clouds,0,0
229,Pimentel,-6.84,-79.93,71.02,81,59,13.42,PE,2020-04-20 04:22:36,broken clouds,0,0
230,Zaysan,47.47,84.87,60.17,29,0,4.43,KZ,2020-04-20 04:22:36,clear sky,0,0
231,Burnie,-41.07,145.92,61.0,49,40,15.01,AU,2020-04-20 04:22:37,light rain,1.42,0
232,Itarema,-2.92,-39.92,77.07,87,21,1.95,BR,2020-04-20 04:22:37,few clouds,0,0
233,Biankouma,7.74,-7.61,70.32,81,70,3.13,CI,2020-04-20 04:22:37,broken clouds,0,0
234,Cochabamba,-17.39,-66.16,53.6,71,8,3.36,BO,2020-04-20 04:22:37,clear sky,0,0
235,Sola,-13.88,167.55,89.6,75,40,5.82,VU,2020-04-20 04:16:58,scattered clouds,0,0
236,Saint-Augustin,51.23,-58.65,28.54,98,100,17.11,CA,2020-04-20 04:17:33,snow,0,3.19
237,Anloga,5.79,0.9,82.89,78,73,10.96,GH,2020-04-20 04:22:38,broken clouds,0,0
238,Tessalit,20.2,1.01,78.04,33,0,8.21,ML,2020-04-20 04:16:02,clear sky,0,0
239,Yekepa,7.58,-8.54,70.41,85,98,2.15,LR,2020-04-20 04:22:39,light rain,0.34,0
240,Kahului,20.89,-156.47,80.6,54,75,10.29,US,2020-04-20 04:16:26,broken clouds,0,0
241,Chicama,-7.84,-79.15,73.51,70,7,6.55,PE,2020-04-20 04:22:39,clear sky,0,0
242,Khorramshahr,30.44,48.17,71.6,64,100,2.24,IR,2020-04-20 04:22:39,overcast clouds,0,0
243,Awbari,26.59,12.78,80.02,16,91,18.05,LY,2020-04-20 04:22:39,overcast clouds,0,0
244,Tasiilaq,65.61,-37.64,32.0,90,100,6.93,GL,2020-04-20 04:16:48,overcast clouds,0,0
245,Huescar,37.81,-2.54,57.99,86,41,4.0,ES,2020-04-20 04:22:40,scattered clouds,0,0
246,Prainha,-1.8,-53.48,72.63,97,100,1.5,BR,2020-04-20 04:22:40,light rain,0.55,0
247,Port Blair,11.67,92.75,84.47,76,46,9.1,IN,2020-04-20 04:17:12,light rain,0.68,0
248,Tagusao,9.19,117.81,86.29,69,78,9.15,PH,2020-04-20 04:22:41,light rain,0.61,0
249,Butaritari,3.07,172.79,83.77,70,26,7.83,KI,2020-04-20 04:16:29,light rain,1.01,0
250,Vrangel,42.73,133.08,40.6,91,100,14.97,RU,2020-04-20 04:22:41,light rain,2.03,0
251,Irituia,-1.77,-47.44,74.17,95,61,2.68,BR,2020-04-20 04:22:41,light rain,1.01,0
252,Honiara,-9.43,159.95,89.6,70,40,6.93,SB,2020-04-20 04:22:42,light thunderstorm,0,0
253,Cherskiy,68.75,161.3,12.81,94,100,8.32,RU,2020-04-20 04:16:03,light snow,0,0.13
254,San Clemente,33.43,-117.61,60.01,81,100,1.01,US,2020-04-20 04:22:42,overcast clouds,0,0
255,Shimoda,34.67,138.95,54.0,93,75,13.87,JP,2020-04-20 04:15:57,light intensity shower rain,0,0
256,Yar-Sale,66.83,70.83,34.11,98,100,7.43,RU,2020-04-20 04:16:29,overcast clouds,0,0
257,Peniche,39.36,-9.38,57.0,79,100,5.01,PT,2020-04-20 04:22:43,light rain,0.13,0
258,Lata,40.16,-8.33,51.01,91,100,1.92,PT,2020-04-20 04:16:11,overcast clouds,0,0
259,Nsanje,-16.92,35.26,66.96,92,47,2.24,MW,2020-04-20 04:22:43,scattered clouds,0,0
260,Kokkola,63.84,23.13,39.99,80,99,2.24,FI,2020-04-20 04:22:43,overcast clouds,0,0
261,Kaitangata,-46.28,169.85,60.01,43,79,10.0,NZ,2020-04-20 04:16:46,broken clouds,0,0
262,Rio Cuarto,-33.13,-64.35,62.6,77,0,5.82,AR,2020-04-20 04:19:44,clear sky,0,0
263,Camacari,-12.7,-38.32,75.2,94,75,9.17,BR,2020-04-20 04:20:44,moderate rain,0,0
264,Vao,-22.67,167.48,73.98,91,100,14.85,NC,2020-04-20 04:16:53,heavy intensity rain,13.27,0
265,Goderich,43.75,-81.72,35.01,68,0,11.41,CA,2020-04-20 04:16:11,clear sky,0,0
266,Carnarvon,-24.87,113.63,78.8,61,53,18.34,AU,2020-04-20 04:16:10,broken clouds,0,0
267,Fort Saint James,54.43,-124.25,51.28,65,0,1.41,CA,2020-04-20 04:22:45,clear sky,0,0
268,Comodoro Rivadavia,-45.87,-67.5,51.8,53,0,19.46,AR,2020-04-20 04:14:13,clear sky,0,0
269,Kamina,-8.74,24.99,62.6,70,100,4.18,CD,2020-04-20 04:22:46,overcast clouds,0,0
270,Vila Velha,-20.33,-40.29,73.0,88,20,3.36,BR,2020-04-20 04:17:06,few clouds,0,0
271,Rundu,-17.93,19.77,60.8,87,38,3.36,NA,2020-04-20 04:22:46,scattered clouds,0,0
272,Merritt Island,28.54,-80.67,78.01,83,1,4.7,US,2020-04-20 04:22:46,clear sky,0,0
273,Ancud,-41.87,-73.82,42.8,100,65,3.36,CL,2020-04-20 04:17:36,light rain,0.25,0
274,Suntar,62.14,117.63,27.66,89,100,5.68,RU,2020-04-20 04:22:47,overcast clouds,0,0
275,Nukus,42.45,59.61,75.2,17,97,4.7,UZ,2020-04-20 04:22:47,overcast clouds,0,0
276,Luderitz,-26.65,15.16,59.0,87,8,3.36,NA,2020-04-20 04:16:06,clear sky,0,0
277,Grenfell,-33.9,148.17,58.87,50,99,14.14,AU,2020-04-20 04:22:47,overcast clouds,0,0
278,Sioux Lookout,50.1,-91.92,35.6,55,90,14.99,CA,2020-04-20 04:22:47,light snow,0,0
279,Evensk,61.95,159.23,17.35,91,100,7.65,RU,2020-04-20 04:16:22,light snow,0,0.14
280,Seoul,37.57,126.98,55.4,76,90,4.7,KR,2020-04-20 04:21:14,light rain,0,0
281,La Ronge,55.1,-105.28,33.8,50,75,11.41,CA,2020-04-20 04:22:48,broken clouds,0,0
282,Villarrica,-25.75,-56.43,64.33,70,0,2.93,PY,2020-04-20 04:22:48,clear sky,0,0
283,Rorvik,64.86,11.24,41.83,86,99,6.24,NO,2020-04-20 04:22:49,overcast clouds,0,0
284,Husavik,66.04,-17.34,44.6,70,3,21.92,IS,2020-04-20 04:17:54,clear sky,0,0
285,Saint-Joseph,-21.37,55.62,78.01,73,40,16.11,RE,2020-04-20 04:22:49,scattered clouds,0,0
286,Kjollefjord,70.95,27.35,39.2,78,40,20.8,NO,2020-04-20 04:22:49,scattered clouds,0,0
287,Lac Du Bonnet,50.25,-96.06,37.99,76,92,11.92,CA,2020-04-20 04:22:50,light rain,0.3,0
288,San Joaquin,10.26,-67.79,75.06,69,20,2.04,VE,2020-04-20 04:22:50,few clouds,0,0
289,Eastlake,41.65,-81.45,41.0,56,40,11.41,US,2020-04-20 04:22:50,scattered clouds,0,0
290,Lompoc,34.64,-120.46,53.6,76,1,3.36,US,2020-04-20 04:16:23,clear sky,0,0
291,Meulaboh,4.14,96.13,86.14,68,3,2.1,ID,2020-04-20 04:17:16,clear sky,0,0
292,Sumbe,-11.21,13.84,76.5,86,59,5.19,AO,2020-04-20 04:22:51,moderate rain,3.16,0
293,Luocheng,29.38,104.03,63.37,67,100,4.61,CN,2020-04-20 04:22:51,overcast clouds,0,0
294,Vestmanna,62.16,-7.17,42.8,93,4,14.99,FO,2020-04-20 04:22:52,clear sky,0,0
295,Balsas,-7.53,-46.04,73.8,86,68,2.55,BR,2020-04-20 04:22:52,light rain,1.78,0
296,Sayyan,15.17,44.32,59.41,37,97,0.89,YE,2020-04-20 04:22:52,overcast clouds,0,0
297,Sistranda,63.73,8.83,41.0,80,75,5.82,NO,2020-04-20 04:15:38,broken clouds,0,0
298,Rio Gallegos,-51.62,-69.22,42.8,69,63,24.16,AR,2020-04-20 04:22:41,broken clouds,0,0
299,Baghmara,23.8,86.21,94.78,21,52,8.01,IN,2020-04-20 04:22:53,broken clouds,0,0
300,Tanete,-3.94,119.78,87.22,62,29,0.81,ID,2020-04-20 04:22:53,scattered clouds,0,0
301,Puerto Escondido,15.85,-97.07,78.98,71,17,1.54,MX,2020-04-20 04:17:57,few clouds,0,0
302,Hasaki,35.73,140.83,52.0,100,75,3.36,JP,2020-04-20 04:17:05,light intensity shower rain,0,0
303,Sinnamary,5.38,-52.95,78.67,86,100,14.65,GF,2020-04-20 04:22:54,moderate rain,5.45,0
304,Boyolangu,-8.12,111.89,85.32,68,99,4.21,ID,2020-04-20 04:22:54,overcast clouds,0,0
305,Talcahuano,-36.72,-73.12,53.6,93,100,3.36,CL,2020-04-20 04:22:54,overcast clouds,0,0
306,Vieste,41.88,16.18,57.99,93,75,1.12,IT,2020-04-20 04:22:54,light rain,0,0
307,Naze,28.37,129.48,73.4,64,40,12.75,JP,2020-04-20 04:20:58,scattered clouds,0,0
308,Saint Anthony,45.02,-93.22,43.0,47,1,3.94,US,2020-04-20 04:16:27,clear sky,0,0
309,Vyartsilya,62.18,30.69,34.11,92,78,4.52,RU,2020-04-20 04:22:55,broken clouds,0,0
310,Churapcha,62.0,132.43,20.19,84,0,5.93,RU,2020-04-20 04:22:55,clear sky,0,0
311,Marawi,8.0,124.29,82.49,56,97,2.48,PH,2020-04-20 04:22:55,light rain,0.81,0
312,Nizwa,22.93,57.53,80.35,28,5,0.81,OM,2020-04-20 04:22:56,clear sky,0,0
313,Balkanabat,39.51,54.37,69.19,43,0,1.3,TM,2020-04-20 04:22:56,clear sky,0,0
314,Atasu,48.68,71.64,63.03,33,76,7.2,KZ,2020-04-20 04:22:56,broken clouds,0,0
315,Iqaluit,63.75,-68.51,-7.01,69,5,3.18,CA,2020-04-20 04:17:10,clear sky,0,0
316,Bengkulu,-3.8,102.27,86.95,62,60,2.71,ID,2020-04-20 04:16:29,broken clouds,0,0
317,Kruisfontein,-34.0,24.73,60.62,74,0,5.37,ZA,2020-04-20 04:17:53,clear sky,0,0
318,Nevel,56.02,29.93,30.47,96,7,5.48,RU,2020-04-20 04:22:57,clear sky,0,0
319,Cozumel,20.51,-86.95,81.0,90,48,1.99,MX,2020-04-20 04:22:38,scattered clouds,0,0
320,Neryungri,56.67,124.65,17.17,80,97,17.67,RU,2020-04-20 04:22:58,overcast clouds,0,0
321,Great Yarmouth,52.61,1.73,48.0,85,0,5.01,GB,2020-04-20 04:22:58,clear sky,0,0
322,Codrington,-38.27,141.97,61.39,54,19,21.23,AU,2020-04-20 04:22:58,few clouds,0,0
323,Karasburg,-28.02,18.75,65.17,25,1,1.77,NA,2020-04-20 04:22:58,clear sky,0,0
324,Otavi,-19.65,17.33,64.35,45,28,6.98,NA,2020-04-20 04:22:59,scattered clouds,0,0
325,San Jeronimo,-11.95,-75.28,45.19,28,60,1.41,PE,2020-04-20 04:22:59,broken clouds,0,0
326,Paamiut,61.99,-49.67,22.57,84,9,12.8,GL,2020-04-20 04:22:59,clear sky,0,0
327,Constitucion,-35.33,-72.42,56.53,67,96,9.28,CL,2020-04-20 04:17:02,overcast clouds,0,0
328,Bardiyah,31.76,25.09,58.12,71,41,5.7,LY,2020-04-20 04:22:59,scattered clouds,0,0
329,Chistogorskiy,53.98,87.38,52.56,46,95,3.6,RU,2020-04-20 04:23:00,overcast clouds,0,0
330,Kerkini,41.22,23.08,59.0,88,66,1.61,GR,2020-04-20 04:23:00,broken clouds,0,0
331,Samarai,-10.62,150.67,84.61,74,85,7.58,PG,2020-04-20 04:17:38,light rain,0.6,0
332,Umm Lajj,25.02,37.27,71.49,58,0,4.07,SA,2020-04-20 04:17:59,clear sky,0,0
333,Kaspiysk,42.88,47.64,53.6,81,17,4.47,RU,2020-04-20 04:23:00,few clouds,0,0
334,Atar,20.52,-13.05,69.15,22,0,8.34,MR,2020-04-20 04:17:24,clear sky,0,0
335,Shingu,33.73,135.98,68.0,82,40,9.17,JP,2020-04-20 04:17:13,scattered clouds,0,0
336,Abu Dhabi,24.47,54.37,87.8,33,96,5.82,AE,2020-04-20 04:23:01,overcast clouds,0,0
337,Wilmington,34.23,-77.94,63.0,93,75,6.67,US,2020-04-20 04:23:01,broken clouds,0,0
338,Mehamn,71.04,27.85,39.2,79,40,20.8,NO,2020-04-20 04:16:32,scattered clouds,0,0
339,Golubitskaya,45.32,37.28,51.8,81,100,6.71,RU,2020-04-20 04:23:02,light rain,0.32,0
340,Arenapolis,-14.45,-56.85,73.09,82,5,0.87,BR,2020-04-20 04:23:02,clear sky,0,0
341,Novyy Nekouz,57.9,38.07,31.87,91,2,6.4,RU,2020-04-20 04:23:02,clear sky,0,0
342,Soyo,-6.13,12.37,78.85,82,88,2.35,AO,2020-04-20 04:15:06,overcast clouds,0,0
343,Toora-Khem,52.47,96.11,47.17,33,0,3.51,RU,2020-04-20 04:23:02,clear sky,0,0
344,San Juan,-31.54,-68.54,72.75,32,0,7.81,AR,2020-04-20 04:23:03,clear sky,0,0
345,La Palma,33.85,-118.05,61.0,72,1,9.17,US,2020-04-20 04:23:03,clear sky,0,0
346,Marsh Harbour,26.54,-77.06,79.48,81,63,13.71,BS,2020-04-20 04:23:03,broken clouds,0,0
347,Sovetskiy,61.36,63.58,37.85,76,17,5.91,RU,2020-04-20 04:17:34,few clouds,0,0
348,Ogbomosho,8.13,4.25,75.16,78,100,7.54,NG,2020-04-20 04:23:04,overcast clouds,0,0
349,Rio Bueno,-40.32,-72.97,48.2,100,85,0.76,CL,2020-04-20 04:23:04,mist,0,0
350,Port Hardy,50.7,-127.42,50.0,81,75,8.05,CA,2020-04-20 04:16:48,broken clouds,0,0
351,Tukrah,32.53,20.58,63.36,49,94,7.92,LY,2020-04-20 04:23:04,overcast clouds,0,0
352,Berbera,10.44,45.01,83.59,75,70,8.46,SO,2020-04-20 04:23:04,broken clouds,0,0
353,Batticaloa,7.71,81.69,86.29,69,39,8.05,LK,2020-04-20 04:23:05,light rain,0.37,0
354,Maues,-3.38,-57.72,72.34,97,100,0.87,BR,2020-04-20 04:23:05,light rain,1.05,0
355,Phalaborwa,-23.94,31.14,60.8,93,16,3.36,ZA,2020-04-20 04:23:05,few clouds,0,0
356,Kijang,35.24,129.21,62.6,51,20,10.29,KR,2020-04-20 04:17:18,few clouds,0,0
357,Bendigo,-36.77,144.28,72.0,41,65,1.99,AU,2020-04-20 04:23:06,light rain,0.2,0
358,Tremedal,-14.98,-41.41,67.01,74,77,6.35,BR,2020-04-20 04:23:06,broken clouds,0,0
359,Kangaatsiaq,68.31,-53.46,29.8,91,100,23.42,GL,2020-04-20 04:23:06,snow,0,1.55
360,Kardailovo,51.54,53.9,46.8,77,100,6.29,RU,2020-04-20 04:23:06,light rain,0.21,0
361,High Level,58.52,-117.14,39.2,69,75,8.05,CA,2020-04-20 04:23:07,broken clouds,0,0
362,Chake Chake,-5.25,39.77,80.17,80,97,14.58,TZ,2020-04-20 04:23:07,light rain,2.31,0
363,Abu Samrah,35.3,37.18,64.36,41,36,1.19,SY,2020-04-20 04:17:43,scattered clouds,0,0
364,Rypefjord,70.63,23.67,39.2,82,40,41.38,NO,2020-04-20 04:23:07,scattered clouds,0,0
365,Mochalishche,56.33,48.35,39.2,80,20,6.71,RU,2020-04-20 04:23:08,few clouds,0,0
366,Yarim,14.3,44.38,57.92,39,100,1.54,YE,2020-04-20 04:23:08,overcast clouds,0,0
367,Baca,21.1,-89.42,87.8,52,5,14.99,MX,2020-04-20 04:23:08,clear sky,0,0
368,Koulikoro,14.0,-7.75,87.31,30,17,7.56,ML,2020-04-20 04:23:08,few clouds,0,0
369,Pestovo,58.59,35.8,31.23,94,60,3.78,RU,2020-04-20 04:16:36,broken clouds,0,0
370,Verkhnyaya Inta,65.98,60.31,34.02,94,100,8.34,RU,2020-04-20 04:23:09,light snow,0,0.27
371,Caravelas,-17.71,-39.25,74.89,78,15,13.18,BR,2020-04-20 04:23:09,few clouds,0,0
372,Eydhafushi,5.1,73.07,85.86,74,91,9.98,MV,2020-04-20 04:23:09,light rain,0.14,0
373,Okha,53.57,142.95,31.06,99,100,13.58,RU,2020-04-20 04:23:10,light snow,0,0.24
374,Sept-Iles,50.2,-66.38,30.99,86,90,9.17,CA,2020-04-20 04:17:55,overcast clouds,0,0
375,Sandwick,60.0,-1.25,42.8,81,0,5.82,GB,2020-04-20 04:23:10,clear sky,0,0
376,Alta Floresta,-9.88,-56.09,71.78,87,100,1.43,BR,2020-04-20 04:23:10,light rain,1.39,0
377,Ust-Maya,60.42,134.53,23.99,85,69,3.29,RU,2020-04-20 04:23:10,broken clouds,0,0
378,Wagar,16.15,36.2,70.07,19,7,8.5,SD,2020-04-20 04:23:11,clear sky,0,0
379,Labuhan,-6.88,112.21,88.03,65,43,2.51,ID,2020-04-20 04:23:11,scattered clouds,0,0
380,Saldanha,-33.01,17.94,59.0,82,92,11.41,ZA,2020-04-20 04:17:22,overcast clouds,0,0
381,Fairbanks,64.84,-147.72,42.01,100,90,6.42,US,2020-04-20 04:23:11,light rain,0,0
382,Gizo,-8.1,156.84,84.02,72,83,2.73,SB,2020-04-20 04:16:19,light rain,0.71,0
383,Yulara,-25.24,130.99,93.2,21,24,6.93,AU,2020-04-20 04:17:20,few clouds,0,0
384,Meiktila,20.87,95.87,93.11,30,0,10.22,MM,2020-04-20 04:23:12,clear sky,0,0
385,Nakamura,32.98,132.93,67.53,63,32,10.85,JP,2020-04-20 04:23:12,scattered clouds,0,0
386,Sao Paulo De Olivenca,-3.38,-68.87,72.41,93,24,1.48,BR,2020-04-20 04:23:12,few clouds,0,0
387,Iberia,29.95,-91.75,75.2,100,75,13.87,US,2020-04-20 04:23:13,broken clouds,0,0
388,Korhogo,9.45,-5.63,77.13,64,58,6.85,CI,2020-04-20 04:23:13,light rain,0.52,0
389,Rawson,-43.3,-65.1,60.03,40,41,23.94,AR,2020-04-20 04:16:50,scattered clouds,0,0
390,Aksarka,66.56,67.8,33.98,97,100,7.76,RU,2020-04-20 04:23:14,overcast clouds,0,0
391,Mendi,-6.18,143.65,67.78,45,55,4.54,PG,2020-04-20 04:23:14,light rain,1.66,0
392,Rocha,-34.48,-54.33,59.86,83,0,6.62,UY,2020-04-20 04:23:14,clear sky,0,0
393,Komatipoort,-25.43,31.95,60.01,95,1,4.85,ZA,2020-04-20 04:23:14,clear sky,0,0
394,Huilong,31.81,121.66,63.16,69,23,4.27,CN,2020-04-20 04:23:15,few clouds,0,0
395,Hami,42.8,93.45,65.8,14,89,10.58,CN,2020-04-20 04:23:15,overcast clouds,0,0
396,San Cristobal,7.77,-72.22,67.6,63,98,1.95,VE,2020-04-20 04:23:15,light rain,0.7,0
397,Taoudenni,22.68,-3.98,75.31,24,0,5.03,ML,2020-04-20 04:15:53,clear sky,0,0
398,Kiama,-34.68,150.87,68.0,45,95,6.93,AU,2020-04-20 04:23:15,overcast clouds,0,0
399,Fredericksburg,38.3,-77.46,54.0,87,1,1.95,US,2020-04-20 04:19:28,clear sky,0,0
400,Puerto Narino,-3.77,-70.38,73.4,100,20,2.24,CO,2020-04-20 04:23:16,few clouds,0,0
401,Deputatskiy,69.3,139.9,9.95,87,26,6.2,RU,2020-04-20 04:17:20,scattered clouds,0,0
402,Maragogi,-9.01,-35.22,78.94,83,25,7.29,BR,2020-04-20 04:18:12,light rain,2.32,0
403,Bathsheba,13.22,-59.52,80.6,69,20,14.99,BB,2020-04-20 04:16:24,few clouds,0,0
404,Carutapera,-1.2,-46.02,79.12,85,37,6.49,BR,2020-04-20 04:17:53,scattered clouds,0,0
405,Kigali,-1.95,30.06,64.4,100,40,1.81,RW,2020-04-20 04:23:17,mist,0,0
406,Aguimes,27.91,-15.45,64.4,68,20,10.29,ES,2020-04-20 04:23:17,few clouds,0,0
407,Quelimane,-17.88,36.89,73.4,83,75,6.93,MZ,2020-04-20 04:23:18,broken clouds,0,0
408,Saint-Georges,12.06,-61.75,80.6,78,40,19.46,GD,2020-04-20 04:12:44,light intensity shower rain,0,0
409,Gao,16.64,1.64,86.88,30,28,10.18,ML,2020-04-20 04:23:18,scattered clouds,0,0
410,Arvika,59.66,12.59,39.2,80,0,8.05,SE,2020-04-20 04:23:19,clear sky,0,0
411,Tenenkou,14.46,-4.92,85.44,34,69,10.04,ML,2020-04-20 04:23:19,broken clouds,0,0
412,Raymondville,26.48,-97.78,81.0,69,1,4.7,US,2020-04-20 04:21:19,clear sky,0,0
413,Snasa,64.25,12.38,37.26,84,96,3.11,NO,2020-04-20 04:23:19,overcast clouds,0,0
414,Bloemfontein,-29.12,26.21,50.0,100,0,3.36,ZA,2020-04-20 04:23:20,clear sky,0,0
415,Hammerfest,70.66,23.68,39.2,82,40,41.38,NO,2020-04-20 04:23:20,scattered clouds,0,0
416,Macrohon,10.08,124.94,85.39,72,89,10.83,PH,2020-04-20 04:23:20,light rain,0.19,0
417,Novoagansk,61.94,76.66,45.81,66,73,7.94,RU,2020-04-20 04:23:20,broken clouds,0,0
418,San Felipe,10.34,-68.74,72.05,78,28,1.54,VE,2020-04-20 04:17:31,scattered clouds,0,0
419,San Patricio,19.22,-104.7,74.21,77,0,10.47,MX,2020-04-20 04:16:12,clear sky,0,0
420,Pitimbu,-7.47,-34.81,77.0,94,20,3.36,BR,2020-04-20 04:23:21,few clouds,0,0
421,Susurluk,39.91,28.16,57.0,100,100,5.57,TR,2020-04-20 04:23:21,overcast clouds,0,0
422,Changtu,42.78,124.1,37.2,80,100,19.71,CN,2020-04-20 04:23:21,light snow,0,0.62
423,Loubomo,-4.2,12.67,71.28,90,96,1.43,CG,2020-04-20 04:23:22,moderate rain,5.96,0
424,Turtas,58.94,69.13,44.47,62,0,5.39,RU,2020-04-20 04:23:22,clear sky,0,0
425,Tagab,34.85,69.65,55.4,76,40,0.6,AF,2020-04-20 04:23:22,scattered clouds,0,0
426,Etchoropo,26.77,-109.67,72.0,63,25,1.01,MX,2020-04-20 04:23:22,scattered clouds,0,0
427,Oranjestad,12.52,-70.03,80.6,78,40,21.92,AW,2020-04-20 04:16:51,scattered clouds,0,0
428,Weiser,44.25,-116.97,57.0,50,1,4.7,US,2020-04-20 04:18:57,clear sky,0,0
429,Bull Savanna,17.89,-77.59,73.71,82,17,7.27,JM,2020-04-20 04:23:23,few clouds,0,0
430,Anantapur,14.68,77.6,86.36,40,0,6.04,IN,2020-04-20 04:22:14,clear sky,0,0
431,Derzhavinsk,51.1,66.32,58.1,52,92,13.33,KZ,2020-04-20 04:23:23,overcast clouds,0,0
432,Tautira,-17.73,-149.15,86.0,62,65,4.7,PF,2020-04-20 04:16:12,light rain,0.47,0
433,Nosy Varika,-20.58,48.53,72.16,86,66,5.48,MG,2020-04-20 04:23:24,light rain,0.73,0
434,Berlevag,70.86,29.09,39.2,78,40,20.8,NO,2020-04-20 04:23:24,scattered clouds,0,0
435,Los Alamos,35.89,-106.31,51.8,29,1,4.7,US,2020-04-20 04:23:24,clear sky,0,0
436,Butler,39.45,-84.57,48.0,87,1,4.5,US,2020-04-20 04:19:11,clear sky,0,0
437,Kapoeta,4.77,33.59,72.14,52,89,3.6,SS,2020-04-20 04:23:25,overcast clouds,0,0
438,Carthage,36.86,10.33,69.8,60,40,6.93,TN,2020-04-20 04:23:25,scattered clouds,0,0
439,Mangrol,21.12,70.12,82.8,61,0,9.44,IN,2020-04-20 04:23:25,clear sky,0,0
440,Preobrazheniye,42.9,133.91,39.87,89,100,10.38,RU,2020-04-20 04:23:26,moderate rain,3.92,0
441,Hervey Bay,-25.3,152.85,82.4,54,40,4.7,AU,2020-04-20 04:17:30,scattered clouds,0,0
442,Verkhoyansk,67.54,133.38,18.82,89,88,6.26,RU,2020-04-20 04:17:20,overcast clouds,0,0
443,Santa Rosalia,27.32,-112.28,69.6,44,92,4.52,MX,2020-04-20 04:23:26,overcast clouds,0,0
444,Bhag,29.04,67.82,84.88,26,11,1.25,PK,2020-04-20 04:23:26,few clouds,0,0
445,Anito,12.45,125.29,85.78,72,93,12.41,PH,2020-04-20 04:23:27,light rain,0.7,0
446,Suluq,31.67,20.25,65.01,48,99,16.17,LY,2020-04-20 04:23:27,overcast clouds,0,0
447,Barao De Melgaco,-16.19,-55.97,75.2,83,60,0.67,BR,2020-04-20 04:23:27,broken clouds,0,0
448,Coos Bay,43.37,-124.22,50.0,81,1,3.36,US,2020-04-20 04:23:27,clear sky,0,0
449,Margate,51.38,1.39,50.0,70,0,8.99,GB,2020-04-20 04:16:16,clear sky,0,0
450,Liverpool,53.41,-2.98,42.01,86,0,5.82,GB,2020-04-20 04:23:28,clear sky,0,0
451,Meghri,38.9,46.24,58.28,45,0,0.18,AM,2020-04-20 04:23:28,clear sky,0,0
452,Havoysund,71.0,24.66,39.2,75,40,21.92,NO,2020-04-20 04:23:28,scattered clouds,0,0
453,Ocos,14.51,-92.19,83.98,63,93,2.13,GT,2020-04-20 04:23:28,overcast clouds,0,0
454,Siderno,38.28,16.3,62.01,17,100,3.0,IT,2020-04-20 04:23:29,overcast clouds,0,0
455,Souillac,-20.52,57.52,75.2,88,40,11.41,MU,2020-04-20 04:16:21,shower rain,0,0
456,Abu Zabad,12.35,29.25,70.99,18,100,8.3,SD,2020-04-20 04:23:29,overcast clouds,0,0
457,Kupang,-10.17,123.58,93.2,56,20,5.82,ID,2020-04-20 04:23:30,few clouds,0,0
458,Havelock,34.88,-76.9,64.99,82,90,4.7,US,2020-04-20 04:22:21,overcast clouds,0,0
459,Pangody,65.85,74.49,33.08,93,85,12.73,RU,2020-04-20 04:21:08,overcast clouds,0,0
460,Westport,41.14,-73.36,55.0,62,75,10.29,US,2020-04-20 04:23:30,broken clouds,0,0
461,Posadas,-27.37,-55.9,63.1,64,0,3.65,AR,2020-04-20 04:23:30,clear sky,0,0
462,Kebumen,-7.67,109.65,88.9,63,76,0.38,ID,2020-04-20 04:23:31,light rain,0.19,0
463,Tres Arroyos,-38.37,-60.28,56.8,70,91,5.84,AR,2020-04-20 04:18:13,overcast clouds,0,0
464,Dunmore East,52.15,-6.99,48.0,82,77,4.0,IE,2020-04-20 04:23:31,broken clouds,0,0
465,Hare Bay,48.85,-54.01,32.0,96,90,20.8,CA,2020-04-20 04:23:31,light snow,0,0
466,Ayan,56.45,138.17,23.54,92,100,16.53,RU,2020-04-20 04:23:31,light snow,0,0.5
467,Xam Nua,20.42,104.04,87.71,29,0,5.73,LA,2020-04-20 04:23:32,clear sky,0,0
468,Darhan,49.49,105.92,31.64,57,98,12.21,MN,2020-04-20 04:23:32,light snow,0,0.22
469,Maneadero,31.72,-116.57,61.0,83,100,7.0,MX,2020-04-20 04:17:34,overcast clouds,0,0
470,Jinxiang,22.86,115.7,84.0,73,30,3.0,CN,2020-04-20 04:23:33,scattered clouds,0,0
471,Mao,39.89,4.27,60.8,93,75,10.29,ES,2020-04-20 04:23:33,light rain,0,0
472,Longonjo,-12.91,15.25,62.11,59,99,2.53,AO,2020-04-20 04:23:33,overcast clouds,0,0
473,Koga,33.73,130.47,64.99,68,75,11.41,JP,2020-04-20 04:23:33,broken clouds,0,0
474,Raybag,16.48,74.78,91.11,26,22,11.32,IN,2020-04-20 04:23:33,few clouds,0,0
475,Manta,-0.95,-80.73,78.8,74,20,4.7,EC,2020-04-20 04:23:34,few clouds,0,0
476,Nishihara,26.18,127.76,69.8,88,90,8.05,JP,2020-04-20 04:23:34,light rain,0,0
477,Young,-32.68,-57.63,62.01,84,0,4.36,UY,2020-04-20 04:23:34,clear sky,0,0
478,Jerez,14.1,-89.75,70.77,67,26,3.02,GT,2020-04-20 04:23:34,scattered clouds,0,0
479,Presidencia Roque Saenz Pena,-26.79,-60.44,63.95,61,0,4.03,AR,2020-04-20 04:23:34,clear sky,0,0
480,Boa Vista,2.82,-60.67,75.2,94,90,10.29,BR,2020-04-20 04:20:17,thunderstorm with rain,0,0
481,Katima Mulilo,-17.5,24.27,57.2,100,2,5.88,NA,2020-04-20 04:23:35,clear sky,0,0
482,Wanning,18.8,110.4,83.73,72,73,11.61,CN,2020-04-20 04:23:35,broken clouds,0,0
483,Birjand,32.87,59.22,60.8,51,23,4.7,IR,2020-04-20 04:23:35,few clouds,0,0
484,Arlit,18.74,7.39,83.53,12,1,9.15,NE,2020-04-20 04:23:36,clear sky,0,0
485,Tiarei,-17.53,-149.33,86.0,62,43,2.24,PF,2020-04-20 04:23:36,light rain,1.35,0
486,Penapolis,-21.42,-50.08,66.51,82,0,6.98,BR,2020-04-20 04:23:36,clear sky,0,0
487,Fort-Shevchenko,44.51,50.26,55.78,62,2,12.93,KZ,2020-04-20 04:23:36,clear sky,0,0
488,San Francisco,37.77,-122.42,55.99,66,20,10.29,US,2020-04-20 04:23:36,few clouds,0,0
489,Esna,25.29,32.55,69.8,56,0,7.54,EG,2020-04-20 04:23:37,clear sky,0,0
490,Thinadhoo,0.53,72.93,85.01,73,69,10.36,MV,2020-04-20 04:16:40,light rain,0.11,0
491,Moate,53.55,-7.72,37.99,92,41,1.01,IE,2020-04-20 04:23:37,scattered clouds,0,0
492,Ambon,-3.7,128.18,89.6,59,40,6.93,ID,2020-04-20 04:13:56,scattered clouds,0,0
493,Ponta Delgada,37.73,-25.67,53.6,66,20,9.17,PT,2020-04-20 04:17:48,few clouds,0,0
494,Lakes Entrance,-37.88,147.98,70.0,46,13,21.99,AU,2020-04-20 04:23:38,few clouds,0,0
495,Melfort,52.87,-104.62,39.2,55,75,11.41,CA,2020-04-20 04:23:38,broken clouds,0,0
496,Manokwari,-0.87,134.08,86.11,64,4,4.21,ID,2020-04-20 04:23:38,clear sky,0,0
497,Buin,-33.73,-70.75,64.4,68,4,0.67,CL,2020-04-20 04:23:38,clear sky,0,0
498,Flinders,-34.58,150.86,68.0,61,98,5.99,AU,2020-04-20 04:16:17,overcast clouds,0,0
499,San Vicente,-26.62,-54.13,57.74,67,0,2.42,AR,2020-04-20 04:23:39,clear sky,0,0
500,Nangomba,-10.9,38.5,67.66,90,20,4.68,TZ,2020-04-20 04:23:39,few clouds,0,0
501,Maceio,-9.67,-35.74,79.05,84,54,10.11,BR,2020-04-20 04:23:39,light rain,2.5,0
502,Henties Bay,-22.12,14.28,59.0,95,30,4.0,NA,2020-04-20 04:23:39,light rain,0.98,0
503,Iskateley,67.68,53.15,30.67,98,95,6.85,RU,2020-04-20 04:23:40,overcast clouds,0,0
504,Panino,51.65,40.13,39.2,80,93,4.47,RU,2020-04-20 04:20:06,light rain,0.13,0
505,Ascension,30.22,-90.9,78.8,88,90,5.82,US,2020-04-20 04:19:38,overcast clouds,0,0
506,Valparaiso,-33.04,-71.63,59.0,82,0,4.7,CL,2020-04-20 04:23:40,clear sky,0,0
507,Hambantota,6.12,81.12,89.6,79,20,13.87,LK,2020-04-20 04:17:05,few clouds,0,0
508,Bilibino,68.05,166.44,11.16,84,14,4.5,RU,2020-04-20 04:16:41,few clouds,0,0
509,Chateaubelair,13.28,-61.25,77.0,75,5,8.01,VC,2020-04-20 04:23:41,clear sky,0,0
510,Aksha,50.28,113.29,27.37,58,99,17.81,RU,2020-04-20 04:23:41,overcast clouds,0,0
511,Komsomolskiy,40.43,71.72,68.0,40,4,4.7,UZ,2020-04-20 04:18:12,clear sky,0,0
512,Boddam,57.47,-1.78,39.99,82,0,1.12,GB,2020-04-20 04:23:42,clear sky,0,0
513,Visby,57.64,18.3,43.0,80,79,2.24,SE,2020-04-20 04:23:42,broken clouds,0,0
514,Port-Gentil,-0.72,8.78,79.81,83,100,3.0,GA,2020-04-20 04:16:59,light rain,0.68,0
515,Kalengwa,-13.47,25.0,57.7,68,4,3.89,ZM,2020-04-20 04:23:43,clear sky,0,0
516,Nuuk,64.18,-51.72,30.2,54,65,26.4,GL,2020-04-20 04:16:49,broken clouds,0,0
517,Cedar City,37.68,-113.06,60.8,44,90,4.7,US,2020-04-20 04:21:11,overcast clouds,0,0
518,Cudahy,33.96,-118.19,61.0,63,90,10.29,US,2020-04-20 04:19:21,overcast clouds,0,0
519,Kaiyuan,23.7,103.3,83.1,21,1,16.58,CN,2020-04-20 04:23:43,clear sky,0,0
520,Cambrils,41.07,1.05,59.0,100,20,7.7,ES,2020-04-20 04:23:44,moderate rain,0,0
521,Cullera,39.17,-0.25,61.0,77,99,7.0,ES,2020-04-20 04:23:44,light rain,0.7,0
522,Vyazemskiy,47.54,134.75,57.29,35,99,10.49,RU,2020-04-20 04:23:45,overcast clouds,0,0
523,Bilma,18.69,12.92,82.11,13,88,7.27,NE,2020-04-20 04:16:26,overcast clouds,0,0
524,Shenjiamen,29.96,122.3,58.41,74,10,5.14,CN,2020-04-20 04:23:45,clear sky,0,0
525,Shitanjing,39.23,106.34,43.45,26,0,5.79,CN,2020-04-20 04:23:46,clear sky,0,0
526,Aquiraz,-3.9,-38.39,80.6,83,20,4.7,BR,2020-04-20 04:23:46,few clouds,0,0
527,Aksu,41.12,80.26,57.87,40,96,1.54,CN,2020-04-20 04:23:46,overcast clouds,0,0
528,Kaeo,-35.1,173.78,61.0,95,100,1.01,NZ,2020-04-20 04:17:49,moderate rain,6.23,0
529,Pokhara,28.23,83.98,75.45,21,38,2.91,NP,2020-04-20 04:21:24,scattered clouds,0,0
530,Bhinmal,25.0,72.25,84.22,40,100,9.53,IN,2020-04-20 04:23:47,overcast clouds,0,0
531,Aseri,59.45,26.87,37.18,82,48,6.78,EE,2020-04-20 04:23:47,scattered clouds,0,0
532,Havre-Saint-Pierre,50.23,-63.6,28.4,79,90,4.7,CA,2020-04-20 04:15:47,overcast clouds,0,0
533,Zhanaozen,43.3,52.8,57.22,64,6,2.37,KZ,2020-04-20 04:17:38,clear sky,0,0
534,Ferrol,43.48,-8.24,48.0,92,87,5.99,ES,2020-04-20 04:23:47,overcast clouds,0,0
535,Banjar,-8.19,114.97,87.8,84,20,6.93,ID,2020-04-20 04:23:48,few clouds,0,0
536,Sechura,-5.56,-80.82,73.4,74,97,13.13,PE,2020-04-20 04:22:36,overcast clouds,0,0
537,Circleville,39.6,-82.95,44.6,100,1,3.36,US,2020-04-20 04:23:48,clear sky,0,0
538,Bandarbeyla,9.49,50.81,81.79,71,83,3.4,SO,2020-04-20 04:22:40,broken clouds,0,0
539,Mayumba,-3.43,10.66,78.55,85,100,7.29,GA,2020-04-20 04:23:49,light rain,1.75,0
540,Sao Joao Da Ponte,-15.93,-44.01,63.79,76,3,4.45,BR,2020-04-20 04:23:49,clear sky,0,0
541,Abu Kamal,34.45,40.92,71.64,34,71,5.21,SY,2020-04-20 04:17:51,broken clouds,0,0
542,Kendari,-3.94,122.5,90.86,52,0,2.8,ID,2020-04-20 04:23:50,clear sky,0,0
543,Jalu,29.03,21.55,69.19,26,66,8.86,LY,2020-04-20 04:23:50,broken clouds,0,0
544,Srikakulam,18.3,83.9,87.6,62,8,10.13,IN,2020-04-20 04:23:50,clear sky,0,0
545,Arman,59.7,150.17,16.16,85,0,7.25,RU,2020-04-20 04:17:02,clear sky,0,0
546,Gejiu,23.31,103.16,72.07,28,20,11.05,CN,2020-04-20 04:23:50,few clouds,0,0
547,Khartoum,15.55,32.53,71.6,24,0,10.29,SD,2020-04-20 04:23:51,clear sky,0,0
548,Turukhansk,65.82,87.98,40.28,66,100,20.89,RU,2020-04-20 04:23:51,overcast clouds,0,0
549,Iturama,-19.73,-50.2,68.65,81,2,5.64,BR,2020-04-20 04:23:51,light rain,0.13,0
550,Mitsamiouli,-11.38,43.28,82.76,72,50,15.19,KM,2020-04-20 04:23:51,light rain,0.23,0
551,Vuktyl,63.86,57.31,34.54,95,100,4.76,RU,2020-04-20 04:23:51,light snow,0,0.25
552,Muros,42.78,-9.06,51.01,94,99,3.15,ES,2020-04-20 04:23:52,overcast clouds,0,0
553,Walvis Bay,-22.96,14.51,59.0,87,91,13.87,NA,2020-04-20 04:16:46,overcast clouds,0,0
554,Eenhana,-17.47,16.33,69.8,83,35,1.12,NA,2020-04-20 04:23:52,scattered clouds,0,0
555,Teknaf,20.86,92.31,88.0,56,35,1.88,BD,2020-04-20 04:17:23,scattered clouds,0,0
556,Qaqortoq,60.72,-46.03,23.0,49,3,4.7,GL,2020-04-20 04:16:52,clear sky,0,0
557,Kasongo-Lunda,-6.47,16.82,69.96,77,85,0.36,CD,2020-04-20 04:23:53,overcast clouds,0,0
558,Udachnyy,66.42,112.4,35.6,31,30,4.47,RU,2020-04-20 04:23:53,scattered clouds,0,0
559,Lufilufi,-13.87,-171.6,84.0,83,92,5.01,WS,2020-04-20 04:16:55,moderate rain,4.63,0
560,Greensburg,40.3,-79.54,46.99,75,40,3.49,US,2020-04-20 04:21:22,scattered clouds,0,0
561,Beroroha,-21.67,45.17,70.72,59,0,9.55,MG,2020-04-20 04:23:53,clear sky,0,0
